# Automatically generated from Geofeed, DO NOT EDIT

[Version]
data_version = "1.1"
create_time = 2026-03-28T17:48:07Z
update_time = 2026-05-03T04:06:01Z

[Master]
CIDR = "fdc8:dc88:ee11::/48"
country.name = "China"
country.code = "CN"
source = "DN42"

[[GeoData]]
CIDR = "fdc8:dc88:ee11:186::1/128"
anycast = false
country.name = "China"
country.code = "CN"
region.name = "Shaanxi"
region.code = "SN"
city = "Baoji"
latitude = 30.99411
longitude = 90.18183
accuracy_radius = 50

[[GeoData]]
CIDR = "fdc8:dc88:ee11:188::1/128"
anycast = false
country.name = "China"
country.code = "CN"
region.name = "Shanghai"
region.code = "SH"
city = "Shanghai"
latitude = 31.22222
longitude = 121.45806
accuracy_radius = 50

[[GeoData]]
CIDR = "fdc8:dc88:ee11:189::1/128"
anycast = false
country.name = "China"
country.code = "CN"
region.name = "Guangdong"
region.code = "GD"
city = "Guangzhou"
latitude = 23.11667
longitude = 113.25
accuracy_radius = 50

[[GeoData]]
CIDR = "fdc8:dc88:ee11:190::1/128"
anycast = false
country.name = "Japan"
country.code = "JP"
region.name = "Tokyo"
region.code = "13"
city = "Tokyo"
latitude = 35.6895
longitude = 139.69171
accuracy_radius = 50

[[GeoData]]
CIDR = "fdc8:dc88:ee11:191::1/128"
anycast = false
country.name = "United States"
country.code = "US"
region.name = "California"
region.code = "CA"
city = "San Jose"
latitude = 38.06659
longitude = -122.56331
accuracy_radius = 50

[[GeoData]]
CIDR = "fdc8:dc88:ee11:192::1/128"
anycast = false
country.name = "Hong Kong"
country.code = "HK"
city = "Hong Kong"
latitude = 22.27832
longitude = 114.17469
accuracy_radius = 50

[[GeoData]]
CIDR = "fdc8:dc88:ee11:193::1/128"
anycast = false
country.name = "United States"
country.code = "US"
region.name = "California"
region.code = "CA"
city = "Los Angeles"
latitude = 34.05223
longitude = -118.24368
accuracy_radius = 50

[[GeoData]]
CIDR = "fdc8:dc88:ee11:194::1/128"
anycast = false
country.name = "Netherlands"
country.code = "NL"
region.name = "North Holland"
region.code = "NH"
city = "Amsterdam"
latitude = 52.37403
longitude = 4.88969
accuracy_radius = 50

[[GeoData]]
CIDR = "fdc8:dc88:ee11:199::1/128"
anycast = false
country.name = "Taiwan"
country.code = "TW"
region.name = "Taipei City"
region.code = "TPE"
city = "Taipei"
latitude = 25.05306
longitude = 121.52639
accuracy_radius = 50

[[GeoData]]
CIDR = "fdc8:dc88:ee11:200::1/128"
anycast = false
country.name = "Hong Kong"
country.code = "HK"
city = "Hong Kong"
latitude = 22.27832
longitude = 114.17469
accuracy_radius = 50

[[GeoData]]
CIDR = "fdc8:dc88:ee11:128::/64"
anycast = false
country.name = "United States"
country.code = "US"
region.name = "California"
region.code = "CA"
city = "Los Angeles"
latitude = 34.05223
longitude = -118.24368
accuracy_radius = 50

[[GeoData]]
CIDR = "fdc8:dc88:ee11:136::/64"
anycast = false
country.name = "China"
country.code = "CN"
region.name = "Shanghai"
region.code = "SH"
city = "Shanghai"
latitude = 31.22222
longitude = 121.45806
accuracy_radius = 50

[[GeoData]]
CIDR = "fdc8:dc88:ee11:150::/64"
anycast = false
country.name = "Hong Kong"
country.code = "HK"
city = "Hong Kong"
latitude = 22.27832
longitude = 114.17469
accuracy_radius = 50

[[GeoData]]
CIDR = "fdc8:dc88:ee11:152::/64"
anycast = false
country.name = "China"
country.code = "CN"
region.name = "Shaanxi"
region.code = "SN"
city = "Baoji"
latitude = 30.99411
longitude = 90.18183
accuracy_radius = 50

[[GeoData]]
CIDR = "fdc8:dc88:ee11:160::/64"
anycast = false
country.name = "China"
country.code = "CN"
region.name = "Shaanxi"
region.code = "SN"
city = "Baoji"
latitude = 30.99411
longitude = 90.18183
accuracy_radius = 50

[[GeoData]]
CIDR = "fdc8:dc88:ee11:251::/64"
anycast = false
country.name = "Hong Kong"
country.code = "HK"
city = "Hong Kong"
latitude = 22.27832
longitude = 114.17469
accuracy_radius = 50

[[GeoData]]
CIDR = "fdc8:dc88:ee11:252::/64"
anycast = false
country.name = "United States"
country.code = "US"
region.name = "California"
region.code = "CA"
city = "Los Angeles"
latitude = 34.05223
longitude = -118.24368
accuracy_radius = 50

[[GeoData]]
CIDR = "fdc8:dc88:ee11:6666::/64"
anycast = false
country.name = "China"
country.code = "CN"
region.name = "Shaanxi"
region.code = "SN"
city = "Baoji"
latitude = 30.99411
longitude = 90.18183
accuracy_radius = 50

[[GeoData]]
CIDR = "fdc8:dc88:ee11:2929::/64"
anycast = false
country.name = "China"
country.code = "CN"
region.name = "Shaanxi"
region.code = "SN"
city = "Baoji"
latitude = 30.99411
longitude = 90.18183
accuracy_radius = 50
