# Automatically generated from Geofeed, DO NOT EDIT

[Version]
data_version = "1.1"
create_time = 2026-03-28T17:48:07Z
update_time = 2026-04-26T03:51:06Z

[Master]
CIDR = "fdda:8ca4:1556::/48"
country.name = "China"
country.code = "CN"
source = "DN42"

[[GeoData]]
CIDR = "fdda:8ca4:1556::/56"
anycast = false
country.name = "United States"
country.code = "US"
region.name = "California"
region.code = "CA"
city = "Los Angeles"
latitude = 34.05223
longitude = -118.24368
accuracy_radius = 50

[[GeoData]]
CIDR = "fdda:8ca4:1556:1000::/56"
anycast = false
country.name = "Singapore"
country.code = "SG"
city = "Singapore"
latitude = 1.28967
longitude = 103.85007
accuracy_radius = 50

[[GeoData]]
CIDR = "fdda:8ca4:1556:2000::/56"
anycast = false
country.name = "China"
country.code = "CN"
region.name = "Beijing"
region.code = "BJ"
city = "Beijing"
latitude = 39.9075
longitude = 116.39723
accuracy_radius = 50

[[GeoData]]
CIDR = "fdda:8ca4:1556:3000::/56"
anycast = false
country.name = "Germany"
country.code = "DE"
region.name = "Hesse"
region.code = "HE"
city = "Frankfurt"
latitude = 49.68333
longitude = 10.53333
accuracy_radius = 50

[[GeoData]]
CIDR = "fdda:8ca4:1556:5000::/56"
anycast = false
country.name = "United States"
country.code = "US"
region.name = "New York"
region.code = "NY"
city = "New York"
latitude = 43.00035
longitude = -75.4999
accuracy_radius = 50

[[GeoData]]
CIDR = "fdda:8ca4:1556:6000::/56"
anycast = false
country.name = "Japan"
country.code = "JP"
region.name = "Tokyo"
region.code = "13"
city = "Tokyo"
latitude = 35.6895
longitude = 139.69171
accuracy_radius = 50

[[GeoData]]
CIDR = "fdda:8ca4:1556:7000::/56"
anycast = false
country.name = "New Zealand"
country.code = "NZ"
region.name = "Auckland"
region.code = "AUK"
city = "Auckland"
latitude = -36.85582
longitude = 174.74304
accuracy_radius = 50

[[GeoData]]
CIDR = "fdda:8ca4:1556:a000::/56"
anycast = false
country.name = "Austria"
country.code = "AT"
region.name = "Vienna"
region.code = "9"
city = "Vienna"
latitude = 48.20849
longitude = 16.37208
accuracy_radius = 50

[[GeoData]]
CIDR = "fdda:8ca4:1556:b000::/56"
anycast = false
country.name = "China"
country.code = "CN"
latitude = 39.9075
longitude = 116.39723
accuracy_radius = 50

[[GeoData]]
CIDR = "fdda:8ca4:1556:c000::/56"
anycast = false
country.name = "Netherlands"
country.code = "NL"
region.name = "North Holland"
region.code = "NH"
city = "Amsterdam"
latitude = 52.37403
longitude = 4.88969
accuracy_radius = 50

[[GeoData]]
CIDR = "fdda:8ca4:1556:d000::/56"
anycast = false
country.name = "United States"
country.code = "US"
region.name = "Texas"
region.code = "TX"
city = "Dallas"
latitude = 32.78306
longitude = -96.80667
accuracy_radius = 50
