# Automatically generated from Geofeed, DO NOT EDIT

[Version]
data_version = "1.1"
create_time = 2026-03-28T17:48:07Z
update_time = 2026-04-26T03:51:06Z

[Master]
CIDR = "fddf:3681:e80::/48"
country.name = "China"
country.code = "CN"
source = "DN42"

[[GeoData]]
CIDR = "fddf:3681:e80:225::/64"
anycast = false
country.name = "Hong Kong"
country.code = "HK"
city = "Kowloon"
latitude = 22.30456
longitude = 114.16193
accuracy_radius = 50

[[GeoData]]
CIDR = "fddf:3681:e80:226::/64"
anycast = false
country.name = "Japan"
country.code = "JP"
region.name = "Tokyo"
region.code = "13"
city = "Tokyo"
latitude = 35.6895
longitude = 139.69171
accuracy_radius = 50

[[GeoData]]
CIDR = "fddf:3681:e80:227::/64"
anycast = false
country.name = "Singapore"
country.code = "SG"
city = "Singapore"
latitude = 1.28967
longitude = 103.85007
accuracy_radius = 50

[[GeoData]]
CIDR = "fddf:3681:e80:228::/64"
anycast = false
country.name = "United Kingdom"
country.code = "GB"
city = "London"
latitude = 51.50853
longitude = -0.12574
accuracy_radius = 50

[[GeoData]]
CIDR = "fddf:3681:e80:229::/64"
anycast = false
country.name = "United States"
country.code = "US"
city = "Salt Lake City"
latitude = 40.76078
longitude = -111.89105
accuracy_radius = 50

[[GeoData]]
CIDR = "fddf:3681:e80:231::/64"
anycast = false
country.name = "Netherlands"
country.code = "NL"
city = "Amsterdam"
latitude = 52.37403
longitude = 4.88969
accuracy_radius = 50

[[GeoData]]
CIDR = "fddf:3681:e80:232::/64"
anycast = false
country.name = "Netherlands"
country.code = "NL"
city = "Amsterdam"
latitude = 52.37403
longitude = 4.88969
accuracy_radius = 50

[[GeoData]]
CIDR = "fddf:3681:e80:234::/64"
anycast = false
country.name = "China"
country.code = "CN"
city = "Chengdu"
latitude = 30.66667
longitude = 104.06667
accuracy_radius = 50

[[GeoData]]
CIDR = "fddf:3681:e80:235::/64"
anycast = false
country.name = "China"
country.code = "CN"
region.name = "Shanghai"
region.code = "SH"
city = "Shanghai"
latitude = 31.22222
longitude = 121.45806
accuracy_radius = 50

[[GeoData]]
CIDR = "fddf:3681:e80:f00::/56"
anycast = false
country.name = "Hong Kong"
country.code = "HK"
city = "Kowloon"
latitude = 22.30456
longitude = 114.16193
accuracy_radius = 50

[[GeoData]]
CIDR = "fddf:3681:e80:300::/56"
anycast = false
country.name = "China"
country.code = "CN"
region.name = "Shanghai"
region.code = "SH"
city = "Shanghai"
latitude = 31.22222
longitude = 121.45806
accuracy_radius = 50
